[
  {
    "groupName": "北京",
    "lat": "39.905",
    "lng": "116.405",
    "internal": 1,
    "list": [
      {
        "name": "集团公司总部",
        "address": "中国北京市北京经济技术开发区西环中路12号",
        "postcode": "100176",
        "tel": null
      },
      {
        "name": "集团技术中心",
        "address": "中国北京市北京经济技术开发区地泽路9号",
        "postcode": "100176",
        "tel": "+86-10-87119999"
      },
      {
        "name": "北京京东方光电科技有限公司",
        "address": "中国北京市北京经济技术开发区西环中路8号",
        "postcode": "100176",
        "tel": "+86-10-67855688"
      },
      {
        "name": "北京京东方显示技术有限公司",
        "address": "中国北京市北京经济技术开发区经海一路118号",
        "postcode": "100176",
        "tel": "+86-10-57676800"
      }
    ]
  },
  {
    "groupName": "合肥",
    "internal": 1,
    "lat": "31.8612",
    "lng": "117.283",
    "list": [
      {
        "name": "合肥京东方光电科技有限公司",
        "address": "中国安徽省合肥市新站区铜陵北路2177号",
        "postcode": "230012",
        "tel": "+86-551-65755666"
      },
      {
        "name": "合肥京东方显示技术有限公司",
        "address": "中国安徽省合肥市新站区铜陵北路3166号",
        "postcode": "230012",
        "tel": "+86-551-67678898"
      },
      {
        "name": "合肥鑫晟光电科技有限公司",
        "address": "中国安徽省合肥市新站区龙子湖路668号",
        "postcode": "230012",
        "tel": "+86-551-66229998"
      },
      {
        "name": "合肥京东方视讯科技有限公司",
        "address": "中国安徽省合肥市新站区东方大道2177号",
        "postcode": "230012",
        "tel": "+86-551-66578886"
      }
    ]
  },
  {
    "groupName": "成都",
    "internal": 1,
    "lat": "30.6595",
    "lng": "104.066",
    "list": [
      {
        "name": "成都京东方光电科技有限公司",
        "address": "中国四川省成都市高新区（西区）合作路1188号",
        "postcode": "611731",
        "tel": "+86-28-61771188"
      },
      {
        "name": "成都京东方车载显示技术有限公司",
        "address": "中国四川省成都市高新区（西区）合作路1188号",
        "postcode": "611731",
        "tel": "+86-28-86102881"
      }
    ]
  },
  {
    "groupName": "绵阳",
    "internal": 1,
    "lat": "31.464",
    "lng": "104.742",
    "list": [
      {
        "name": "绵阳京东方光电科技有限公司",
        "address": "中国四川省绵阳市高新区科发大道中段198号",
        "postcode": "621000",
        "tel": "+86-816-2629510"
      }
    ]
  },
  {
    "groupName": "重庆",
    "internal": 1,
    "lat": "29.5332",
    "lng": "106.505",
    "list": [
      {
        "name": "重庆京东方光电科技有限公司",
        "address": "中国重庆市北碚区水土高新技术产业园云汉大道7号",
        "postcode": "400714",
        "tel": "+86-23-88935888"
      },
      {
        "name": "重庆京东方显示技术有限公司",
        "address": "中国重庆市北碚区水土高新技术产业园云汉大道117号附123号",
        "postcode": "400714",
        "tel": null
      },
      {
        "name": "重庆京东方显示照明有限公司",
        "address": "中国重庆市北碚区水土高新技术产业园云汉大道5号附12号",
        "postcode": "400714",
        "tel": "+86-23-63052579"
      },
      {
        "name": "重庆京东方智慧电子系统有限公司",
        "address": "中国重庆市北碚区水土高新技术产业园云汉大道9号",
        "postcode": "400714",
        "tel": "+86-23-88275366"
      }
    ]
  },
  {
    "groupName": "鄂尔多斯",
    "internal": 1,
    "lat": "39.2445",
    "lng": "108.977",
    "list": [
      {
        "name": "鄂尔多斯市源盛光电有限责任公司",
        "address": "中国内蒙古自治区鄂尔多斯市东胜区装备制造基地科学大道37号",
        "postcode": "017020",
        "tel": "+86-10-57847777"
      }
    ]
  },
  {
    "groupName": "福州",
    "internal": 1,
    "lat": "26.0753",
    "lng": "119.306",
    "list": [
      {
        "name": "福州京东方光电科技有限公司",
        "address": "中国福建省福州市福清市石竹街道西环北路36号",
        "postcode": "350300",
        "tel": "+86-591-85157191"
      }
    ]
  },
  {
    "groupName": "武汉",
    "internal": 1,
    "lat": "30.5844",
    "lng": "114.299",
    "list": [
      {
        "name": "武汉京东方光电科技有限公司",
        "address": "中国湖北省武汉市东西湖区五环大道1011号",
        "postcode": "430040",
        "tel": null
      }
    ]
  },
  {
    "groupName": "固安",
    "internal": 1,
    "lat": "39.44",
    "lng": "116.29",
    "list": [
      {
        "name": "京东方（河北）移动显示技术有限公司",
        "address": "中国河北省廊坊市固安县北开发区东方街2号",
        "postcode": "065500",
        "tel": "+86-10-58411555"
      }
    ]
  },
  {
    "groupName": "苏州",
    "internal": 1,
    "lat": "31.2994",
    "lng": "120.62",
    "list": [
      {
        "name": "高创（苏州）电子有限公司",
        "address": "中国江苏省苏州市吴江经济技术开发区 中山北路1700号",
        "postcode": "215200",
        "tel": "+86-512-63456336"
      },
      {
        "name": "苏州京东方信息科技有限公司",
        "address": "中国江苏省昆山市经济技术开发区龙腾路1号",
        "postcode": "215300",
        "tel": "+86-512-50337666"
      }
    ]
  },
  {
    "groupName": "韩国",
    "lat": "37.410633",
    "lng": "127.154494",
    "internal": 0,
    "list": [
      {
        "name": "京东方韩国有限公司",
        "address": "韩国京畿道城南市盆唐区菽内洞Hyangsaeul-ro 216,HUMAX Village 3层301室",
        "postcode": "13595",
        "tel": "+86-31-778-8063"
      }
    ]
  },
  {
    "groupName": "新加坡",
    "lat": "1.292107",
    "lng": "103.859968",
    "internal": 0,
    "list": [
      {
        "name": "京东方新加坡有限公司",
        "address": "新加坡淡马锡林荫大道8号新达城第三大厦#14-02A",
        "postcode": "038988",
        "tel": "+65-6835-7295"
      }
    ]
  },
  {
    "groupName": "日本",
    "lat": "35.62805",
    "lng": "139.740684",
    "internal": 0,
    "list": [
      {
        "name": "京东方日本有限公司",
        "address": "日本东京都港区港南2-16-1品川东一座4楼",
        "postcode": "108-0075",
        "tel": "+81-(0)3-6712-3960"
      }
    ]
  },
  {
    "groupName": "美国",
    "lat": "37.385996",
    "lng": "-121.963674",
    "internal": 0,
    "list": [
      {
        "name": "京东方美国有限公司",
        "address": "美国加州圣克拉拉市米申学院大道2350号1000室",
        "postcode": "95054",
        "tel": "+1-408-338-0606"
      }
    ]
  },
  {
    "groupName": "休斯顿",
    "lat": "29.988279",
    "lng": "-95.573758",
    "internal": 0,
    "list": [
      {
        "name": "休斯顿办公室",
        "address": "美国德克萨斯州休斯顿市20329州际公路249号180室",
        "postcode": "77070",
        "tel": "+1-408-834-5652"
      }
    ]
  },
  {
    "groupName": "德国",
    "lat": "8.517042",
    "lng": "50.203101",
    "internal": 0,
    "list": [
      {
        "name": "京东方欧洲有限公司",
        "address": "德国黑森州埃斯博恩吉恩海默大街4-6号",
        "postcode": "65760",
        "tel": "+49(0)-6196-5869-40"
      }
    ]
  },
  {
    "groupName": "印度",
    "lat": "28.480317",
    "lng": "77.082671",
    "internal": 0,
    "list": [
      {
        "name": "京东方印度有限公司",
        "address": "印度哈里亚纳邦古尔冈甘地路瓦提卡城市办公楼9楼902",
        "postcode": "122002",
        "tel": "+91-997-176-0373"
      }
    ]
  },
  {
    "groupName": "台湾",
    "lat": "25.060283",
    "lng": "121.559529",
    "internal": 0,
    "list": [
      {
        "name": "台湾京东方有限公司",
        "address": "台北市内湖区瑞光路392号7楼",
        "postcode": "11492",
        "tel": "+886-2-87982828"
      }
    ]
  },
  {
    "groupName": "巴西",
    "lat": "-23.596954",
    "lng": "-46.686481",
    "internal": 0,
    "list": [
      {
        "name": "京东方巴西咨询服务有限责任公司",
        "address": "巴西圣保罗市\/圣保罗州维拉奥林匹亚区戈麦斯˙ 德˙卡瓦略路1329号奥林匹克公园大厦第51号套间301室",
        "postcode": "04547-006",
        "tel": null
      }
    ]
  },
  {
    "groupName": "俄罗斯",
    "lat": "55.867871",
    "lng": "37.402882",
    "internal": 0,
    "list": [
      {
        "name": "京东方俄罗斯有限责任公司",
        "address": "俄罗斯联邦莫斯科州克拉斯诺郭尔斯基区普济尔科沃工业园区莫斯科环路69 km格林伍德办公园区7号楼110室",
        "postcode": "143441",
        "tel": null
      }
    ]
  },
  {
    "groupName": "迪拜",
    "lat": "25.072066",
    "lng": "55.142978",
    "internal": 0,
    "list": [
      {
        "name": "京东方中东有限责任公司",
        "address": "阿联酋迪拜朱美拉湖塔区朱美拉商业中心1号3502",
        "postcode": " ",
        "tel": " "
      }
    ]
  }
]
